{"Name":"UA Court Street 12 & RPX","Phone":"212-123-3212","movies":["The Age of Adaline","Aloha","Avengers: Age of Ultron (2015)","Avengers: Age of Ultron 3D (2015)","Ex Machina","Furious 7","Home","Hot Pursuit","Inside Out","Inside Out 3D","Jurassic World","Mad Max: Fury Road","Mad Max: Fury Road 3D","Mission: Impossible \u2013 Rogue Nation","Paul Blart: Mall Cop 2","Pitch Perfect 2","Poltergeist (2015)","Poltergeist 3D (2015)","San Andreas","San Andreas 3D","Tomorrowland"],"Address":"106 Court St. Brooklyn, NY 11201","Latitude":40.69,"Longitude":40.69}
{"Name":"Regal Battery Park Stadium 11","Phone":"212-123-3212","movies":["The Age of Adaline","Avengers: Age of Ultron (2015)","Avengers: Age of Ultron 3D (2015)","Cinderella (2015)","Ex Machina","Furious 7","Get Hard","Home","Hot Pursuit","Mad Max: Fury Road","Mad Max: Fury Road 3D","Pitch Perfect 2","Poltergeist (2015)","Poltergeist 3D (2015)","San Andreas","San Andreas 3D","Tomorrowland"],"Address":"102 North End Ave. New York, NY 10281","Latitude":40.7,"Longitude":40.7}
{"Name":"Angelika Film Center","Phone":"212-123-3212","movies":["Far From The Madding Crowd (2015)","The Salt of the Earth","Slow West","Welcome to Me","Woman in Gold"],"Address":"18 W. Houston St. NEW YORK, NY 10012","Latitude":40.72,"Longitude":40.72}
{"Name":"City Cinemas Village East","Phone":"212-123-3212","movies":["Adult Beginners","It Follows","Maggie","Pitch Perfect 2","Playing It Cool ","PORRO HECHO EN COLOMBIA","Welcome to Me"],"Address":"181-189 Second Ave. New York, NY 10003","Latitude":40.73,"Longitude":40.73}
{"Name":"AMC Loews Village 7","Phone":"212-123-3212","movies":["The Age of Adaline","Aida Met Summer Encore","Child 44","Cinderella (2015)","Echoes of War (2015)","Hot Pursuit","Inside Out","Inside Out 3D","Insider Access to Disney Pixar\u2019s Inside Out","La Fille Du Regiment Met Summer Encore","Mad Max: Fury Road","Mad Max: Fury Road 3D","Monkey Kingdom","Paul Blart: Mall Cop 2","The Merry Widow Met Summer Encore","Unfriended"],"Address":"66 3rd Ave. New York, NY 10003","Latitude":40.73,"Longitude":40.73}
{"Name":"Regal Union Square Stadium 14","Phone":"212-123-3212","movies":["Aida Met Summer Encore","All Work All Play: The Pursuit of eSports Glory Live","Avengers: Age of Ultron (2015)","Avengers: Age of Ultron 3D (2015)","DCI 2015 Tour Premiere","The Divergent Series: Insurgent","Ex Machina","Exhibition OnScreen: The Impressionists","Furious 7","Home","Kingsman: The Secret Service","La Fille Du Regiment Met Summer Encore","Noble","Poltergeist (2015)","Poltergeist 3D (2015)","San Andreas","San Andreas 3D","The D Train (2015)","The Merry Widow Met Summer Encore","While We're Young"],"Address":"850 Broadway New York, NY 10003","Latitude":40.73,"Longitude":40.73}
{"Name":"AMC Loews 19th St. East 6","Phone":"212-123-3212","movies":["The Age of Adaline","Aloha","Cinderella (2015)","Hot Pursuit","Inside Out 3D","Mad Max: Fury Road","Mad Max: Fury Road 3D","Monkey Kingdom","Paul Blart: Mall Cop 2","Pitch Perfect 2","Tomorrowland"],"Address":"890 Broadway New York, NY 10003","Latitude":40.73,"Longitude":40.73}
{"Name":"AMC Loews Kips Bay 15","Phone":"212-123-3212","movies":["5 Flights Up","The Age of Adaline","Aida Met Summer Encore","Aloha","Avengers: Age of Ultron (2015)","Avengers: Age of Ultron 3D (2015)","Avengers: Age of Ultron An IMAX 3D Experience (2015)","Classic Music Series: R.E.M. by MTV","DCI 2015 Tour Premiere","Ex Machina","Exhibition OnScreen: The Impressionists","Far From The Madding Crowd (2015)","Furious 7","Home","Hot Pursuit","Inside Out","Inside Out 3D","Insider Access to Disney Pixar\u2019s Inside Out","Insidious: Chapter 3","Jurassic World","Jurassic World: An IMAX 3D Experience","La Fille Du Regiment Met Summer Encore","Mad Max: Fury Road","Mad Max: Fury Road 3D","Mission: Impossible \u2013 Rogue Nation","Mission: Impossible \u2013 Rogue Nation: An IMAX Experience","Paul Blart: Mall Cop 2","Pitch Perfect 2","Poltergeist (2015)","Poltergeist 3D (2015)","San Andreas","San Andreas 3D","The D Train (2015)","The Merry Widow Met Summer Encore","Tomorrowland","Tomorrowland: The IMAX Experience "],"Address":"570 Second Ave. New York, NY 10016","Latitude":40.74,"Longitude":40.74}
{"Name":"AMC Loews Newport Centre 11","Phone":"212-123-3212","movies":["The Age of Adaline","Aloha","Avengers: Age of Ultron (2015)","Avengers: Age of Ultron 3D (2015)","Bombay Velvet","Ex Machina","Furious 7","Gabbar is Back","Home","Hot Pursuit","Insidious: Chapter 3","Jurassic World","Mad Max: Fury Road","Mad Max: Fury Road 3D","Mission: Impossible \u2013 Rogue Nation","Paul Blart: Mall Cop 2","Piku","Pitch Perfect 2","Poltergeist (2015)","Poltergeist 3D (2015)","San Andreas 3D"],"Address":"30-300 Mall Drive West Jersey City, NJ 07303","Latitude":40.71,"Longitude":40.71}
{"Name":"AMC Loews 34th Street 14","Phone":"212-123-3212","movies":["The Age of Adaline","Aloha","Avengers: Age of Ultron (2015)","Avengers: Age of Ultron 3D (2015)","Avengers: Age of Ultron An IMAX 3D Experience (2015)","Ex Machina","Furious 7","Get Hard","Home","Hot Pursuit","Insidious: Chapter 3","Jurassic World","Jurassic World: An IMAX 3D Experience","Mad Max: Fury Road","Mad Max: Fury Road 3D","Mission: Impossible \u2013 Rogue Nation","Mission: Impossible \u2013 Rogue Nation: An IMAX Experience","Paul Blart: Mall Cop 2","Pitch Perfect 2","Poltergeist (2015)","Poltergeist 3D (2015)","San Andreas","San Andreas 3D","The D Train (2015)","Unfriended"],"Address":"312 W. 34th St. New York, NY 10001","Latitude":40.75,"Longitude":40.75}
{"Name":"AMC Empire 25","Phone":"212-123-3212","movies":["5 Flights Up","The Age of Adaline","Aida Met Summer Encore","All Work All Play: The Pursuit of eSports Glory Live","Aloha","Bombay Velvet","Bravetown","Cinderella (2015)","Classic Music Series: R.E.M. by MTV","DCI 2015 Tour Premiere","The Divergent Series: Insurgent","Every Secret Thing","Ex Machina","Exhibition OnScreen: The Impressionists","Far From The Madding Crowd (2015)","Fare Thee Well: Celebrating the Grateful Dead","Furious 7","Furious 7: An IMAX Experience","Gabbar is Back","Home","Hot Pursuit","Inside Out","Inside Out 3D","Insider Access to Disney Pixar\u2019s Inside Out","Insidious: Chapter 3","It Follows","Jurassic World","Jurassic World: An IMAX 3D Experience","Kingsman: The Secret Service","La Fille Du Regiment Met Summer Encore","Little Boy","Mad Max: Fury Road","Mad Max: Fury Road 3D","Mad Max: Fury Road An IMAX 3D Experience","Maggie","Mission: Impossible \u2013 Rogue Nation","Mission: Impossible \u2013 Rogue Nation: An IMAX Experience","Noble","Piku","Sister Code","The D Train (2015)","The Merry Widow Met Summer Encore","Tomorrowland","Tomorrowland: The IMAX Experience ","UFC 187: Johnson vs Cormier Live ","UFC 188: Velasquez vs Werdum Live","War Room","Where Hope Grows","While We're Young"],"Address":"234 West 42nd St. New York, NY 10036","Latitude":40.75,"Longitude":40.75}
{"Name":"Regal E-Walk Stadium 13 & RPX","Phone":"212-123-3212","movies":["Avengers: Age of Ultron (2015)","Avengers: Age of Ultron 3D (2015)","The Divergent Series: Insurgent","Get Hard","Monkey Kingdom","Paul Blart: Mall Cop 2","Pitch Perfect 2","Unfriended"],"Address":"247 W. 42nd St. New York, NY 10036","Latitude":40.75,"Longitude":40.75}
{"Name":"City Cinemas 1, 2 & 3","Phone":"212-123-3212","movies":["Avengers: Age of Ultron (2015)","Avengers: Age of Ultron 3D (2015)","Far From The Madding Crowd (2015)","Pitch Perfect 2"],"Address":"1001 Third Ave. New York, NY 10022","Latitude":40.75,"Longitude":40.75}
{"Name":"City Cinemas Paris Theatre","Phone":"212-123-3212","movies":["Woman in Gold"],"Address":"4 W. 58th St. New York, NY 10019","Latitude":40.76,"Longitude":40.76}
{"Name":"Cobble Hill Cinema","Phone":"212-123-3212","movies":["Avengers: Age of Ultron (2015)","Avengers: Age of Ultron 3D (2015)","Ex Machina","Far From The Madding Crowd (2015)","Mad Max: Fury Road","Mad Max: Fury Road 3D","The D Train (2015)","While We're Young"],"Address":"265 Court St. Brooklyn, NY 11231","Latitude":40.67,"Longitude":40.67}
{"Name":"Bam Rose Cinemas","Phone":"212-123-3212","movies":["Clouds of Sils Maria","Ex Machina","Far From The Madding Crowd (2015)","Welcome to Me"],"Address":"30 Lafayette Ave. Brooklyn, NY 11217","Latitude":40.68,"Longitude":40.68}
{"Name":"Tribeca Grand Grand Screen","Phone":"212-123-3212","movies":[],"Address":"2 Avenue of the Americas New York, NY 10013","Latitude":40.72,"Longitude":40.72}
{"Name":"Landmark Sunshine Cinema","Phone":"212-123-3212","movies":["Dark Star: H.R. Giger's World","New Movie","Felix and Meira","True Story","What We Do in the Shadows"],"Address":"143 E. Houston St. New York, NY 10002","Latitude":40.71,"Longitude":40.71}
{"Name":"Williamsburg Cinemas","Phone":"212-123-3212","movies":["Avengers: Age of Ultron (2015)","Avengers: Age of Ultron 3D (2015)","Furious 7","Hot Pursuit","Mad Max: Fury Road","Mad Max: Fury Road 3D","Mission: Impossible \u2013 Rogue Nation","Pitch Perfect 2","Poltergeist (2015)","Poltergeist 3D (2015)","San Andreas 3D","The D Train (2015)","While We're Young"],"Address":"217 Grand St. Brooklyn, NY 11211","Latitude":40.71,"Longitude":40.71}
{"Name":"Anthology Film Archives","Phone":"212-123-3212","movies":[],"Address":"32 2nd Ave. New York, NY 10008","Latitude":40.71,"Longitude":40.71}
{"Name":"Nitehawk Cinema","Phone":"212-123-3212","movies":["Clouds of Sils Maria","Ex Machina","It Follows","The Seven Five","Spoons, Toons and Booze","Welcome to Me"],"Address":"136 Metropolitan Ave. Brooklyn, NY 11211","Latitude":40.71,"Longitude":40.71}
{"Name":"Pavilion Park Slope","Phone":"212-123-3212","movies":["5 Flights Up","The Age of Adaline","Avengers: Age of Ultron (2015)","Avengers: Age of Ultron 3D (2015)","Furious 7","Home","Hot Pursuit","Mad Max: Fury Road","Mad Max: Fury Road 3D","Maggie","Paul Blart: Mall Cop 2","Pitch Perfect 2"],"Address":"188 Prospect Park W. Brooklyn, NY 11215","Latitude":40.66,"Longitude":40.66}
{"Name":"Film Forum","Phone":"212-123-3212","movies":["Güeros"],"Address":"209 W. Houston St. New York, NY 10014","Latitude":40.73,"Longitude":40.73}
{"Name":"Cinema Village 12th Street","Phone":"212-123-3212","movies":["Childless","Danny Collins","Far From The Madding Crowd (2015)","The Film Critic","Hyena","I Am Big Bird: The Caroll Spinney Story","Know How","Our Man in Tehran","Preggoland","Seeds of Time"],"Address":"22 E. 12th St. New York, NY 10003","Latitude":40.73,"Longitude":40.73}
{"Name":"Bow Tie Cinemas Chelsea","Phone":"212-123-3212","movies":["The Age of Adaline","Avengers: Age of Ultron (2015)","Avengers: Age of Ultron 3D (2015)","Far From The Madding Crowd (2015)","Hot Pursuit","Jurassic World","Mad Max: Fury Road","Mad Max: Fury Road 3D","Mission: Impossible \u2013 Rogue Nation","Pitch Perfect 2","The D Train (2015)","Woman in Gold"],"Address":"260 W. 23rd St New York, NY 10011","Latitude":40.74,"Longitude":40.74}
{"Name":"Liberty Science Center IMAX","Phone":"212-123-3212","movies":[],"Address":"222 Jersey City Blvd. Jersey City, NJ 07305","Latitude":40.69,"Longitude":40.69}
{"Name":"Liberty Science Center Joseph D. Williams Theater","Phone":"212-123-3212","movies":[],"Address":"222 Jersey City Blvd Jersey City, NJ 07305","Latitude":40.69,"Longitude":40.69}
{"Name":"Bay Ridge Alpine Cinemas","Phone":"212-123-3212","movies":["Avengers: Age of Ultron (2015)","Avengers: Age of Ultron 3D (2015)","Furious 7","Home","Hot Pursuit","Mad Max: Fury Road 3D","Monkey Kingdom","Paul Blart: Mall Cop 2","Unfriended"],"Address":"6817 Fifth Ave. Brooklyn, NY 11220","Latitude":40.64,"Longitude":40.64}
{"Name":"Bow Tie Hoboken Cinemas","Phone":"212-123-3212","movies":["The Age of Adaline","Avengers: Age of Ultron (2015)","Avengers: Age of Ultron 3D (2015)","Home","Hot Pursuit","Inside Out","Inside Out 3D","Jurassic World","Mad Max: Fury Road","Mad Max: Fury Road 3D","Mission: Impossible \u2013 Rogue Nation","Pitch Perfect 2","Tomorrowland"],"Address":"409-415 14th Street Hoboken, NJ 07030","Latitude":40.74,"Longitude":40.74}
{"Name":"Kent Theatre","Phone":"212-123-3212","movies":["The Age of Adaline","Avengers: Age of Ultron 3D (2015)","Paul Blart: Mall Cop 2","Pitch Perfect 2","The Seven Five"],"Address":"1170 Coney Island Ave. Brooklyn, NY 11230","Latitude":40.62,"Longitude":40.62}
{"Name":"Bow Tie Cinemas Ziegfeld","Phone":"212-123-3212","movies":["Avengers: Age of Ultron (2015)","Avengers: Age of Ultron 3D (2015)","Tomorrowland"],"Address":"141 West 54th St New York, NY 11421","Latitude":40.69,"Longitude":40.69}
{"Name":"City Cinemas Beekman Theatre","Phone":"212-123-3212","movies":["All Work All Play: The Pursuit of eSports Glory Live","Avengers: Age of Ultron (2015)","Avengers: Age of Ultron 3D (2015)","National Theatre Live: Man and Superman","NT Live: Everyman","NT LIVE: THE BEAUX' STRATAGEM"],"Address":"1271 Second Avenue (at 66th Street) New York, NY 10021","Latitude":40.77,"Longitude":40.77}
{"Name":"Lincoln Plaza Cinemas","Phone":"212-123-3212","movies":["Clouds of Sils Maria","Felix and Meira","Intrepido: A Lonely Hero","Welcome to Me"],"Address":"30 Lincoln Plaza New York, NY 10023","Latitude":40.77,"Longitude":40.77}
{"Name":"UA Kaufman Astoria Cinemas 14 & RPX","Phone":"212-123-3212","movies":["The Age of Adaline","Avengers: Age of Ultron (2015)","Avengers: Age of Ultron 3D (2015)","Ex Machina","Furious 7","Home","Hot Pursuit","Jurassic World","Little Boy","Mad Max: Fury Road","Mad Max: Fury Road 3D","Mission: Impossible \u2013 Rogue Nation","Paul Blart: Mall Cop 2","Pitch Perfect 2","Poltergeist (2015)","Poltergeist 3D (2015)","San Andreas","San Andreas 3D","Unfriended"],"Address":"35-30 38th St. Astoria, NY 11101","Latitude":40.74,"Longitude":40.74}
{"Name":"Elinor Bunin Munroe Film Center","Phone":"212-123-3212","movies":["Dior and I"],"Address":"144 W 65th St. New York, NY 10023","Latitude":40.77,"Longitude":40.77}
{"Name":"Walter Reade Theatre","Phone":"212-123-3212","movies":[],"Address":"70 Lincoln Center Plaza New York, NY 10023","Latitude":40.77,"Longitude":40.77}
{"Name":"AMC Loews Lincoln Square 13","Phone":"212-123-3212","movies":["The Age of Adaline","Avengers: Age of Ultron (2015)","Avengers: Age of Ultron 3D (2015)","Avengers: Age of Ultron An IMAX 3D Experience (2015)","Ex Machina","Far From The Madding Crowd (2015)","Furious 7","Home","Hot Pursuit","Inside Out","Inside Out 3D","Jurassic World: An IMAX 3D Experience","Mad Max: Fury Road","Mad Max: Fury Road 3D","Mission: Impossible \u2013 Rogue Nation","Mission: Impossible \u2013 Rogue Nation: An IMAX Experience","Monkey Kingdom","Paul Blart: Mall Cop 2","Pitch Perfect 2","Poltergeist 3D (2015)","San Andreas 3D","The D Train (2015)","Tomorrowland","Tomorrowland: The IMAX Experience ","While We're Young"],"Address":"1998 Broadway New York, NY 10023","Latitude":40.77,"Longitude":40.77}
{"Name":"American Museum of the Moving Image","Phone":"212-123-3212","movies":["Inside Out","Me and Earl and The Dying Girl"],"Address":"35 Ave. at 36 Street Astoria, NY 11106","Latitude":40.76,"Longitude":40.76}
{"Name":"Hudson Cinemas","Phone":"212-123-3212","movies":["Avengers: Age of Ultron (2015)","Furious 7","Mad Max: Fury Road","Monkey Kingdom","Paul Blart: Mall Cop 2","Pitch Perfect 2","Poltergeist (2015)","The D Train (2015)","Unfriended"],"Address":"701 Rte 440 Jersey City, NJ 07304","Latitude":40.71,"Longitude":40.71}
{"Name":"LeFrak IMAX - American Museum of Natural History","Phone":"212-123-3212","movies":[],"Address":"175-208 Central Park Way New York, NY 10024","Latitude":40.78,"Longitude":40.78}
{"Name":"Columbia Park Stadium 12","Phone":"212-123-3212","movies":["36 Vayathinile","Avengers: Age of Ultron (2015)","Bombay Velvet","Gabbar is Back","Hot Pursuit","Mad Max: Fury Road","Paul Blart: Mall Cop 2","Piku","Pitch Perfect 2"],"Address":"3125 Kennedy Blvd. North Bergen, NJ 07047","Latitude":40.79,"Longitude":40.79}
{"Name":"City Cinemas East 86th Street","Phone":"212-123-3212","movies":["Ex Machina","Far From The Madding Crowd (2015)","Hot Pursuit","Royal Shakespeare Company: The Merchant of Venice","The D Train (2015)","Tomorrowland","Welcome to Me"],"Address":"210 E. 86th St. New York, NY 10028","Latitude":40.77,"Longitude":40.77}
{"Name":"AMC Loews Orpheum 7","Phone":"212-123-3212","movies":["The Age of Adaline","Aloha","Avengers: Age of Ultron (2015)","Avengers: Age of Ultron 3D (2015)","The Divergent Series: Insurgent 3D","Furious 7","Home","Inside Out","Inside Out 3D","Mad Max: Fury Road","Mad Max: Fury Road 3D","Monkey Kingdom","Paul Blart: Mall Cop 2","Pitch Perfect 2","Poltergeist 3D (2015)"],"Address":"1538 Third Ave. New York, NY 10028","Latitude":40.77,"Longitude":40.77}
{"Name":"Regal Atlas Park Stadium 8","Phone":"212-123-3212","movies":["The Age of Adaline","Aloha","Avengers: Age of Ultron (2015)","Avengers: Age of Ultron 3D (2015)","Furious 7","Hot Pursuit","Inside Out","Inside Out 3D","Jurassic World","Mad Max: Fury Road","Mad Max: Fury Road 3D","Paul Blart: Mall Cop 2","Pitch Perfect 2","Poltergeist (2015)","Poltergeist 3D (2015)","San Andreas","San Andreas 3D","Tomorrowland"],"Address":"80-28 Cooper Avenue Suite #6216 Glendale, NY 11385","Latitude":40.7,"Longitude":40.7}
{"Name":"AMC 84th Street 6","Phone":"212-123-3212","movies":["Avengers: Age of Ultron (2015)","Avengers: Age of Ultron 3D (2015)","Furious 7","Home","Hot Pursuit","Inside Out 3D","Mad Max: Fury Road","Mad Max: Fury Road 3D","Paul Blart: Mall Cop 2","Pitch Perfect 2"],"Address":"2310 Broadway New York, NY 10024","Latitude":40.78,"Longitude":40.78}
{"Name":"Kerasotes ShowPlace 14","Phone":"212-123-3212","movies":["The Age of Adaline","Aida Met Summer Encore","All Work All Play: The Pursuit of eSports Glory Live","Avengers: Age of Ultron (2015)","Avengers: Age of Ultron 3D (2015)","Ex Machina","Fare Thee Well: Celebrating the Grateful Dead","Furious 7","Home","Hot Pursuit","Insider Access to Disney Pixar\u2019s Inside Out","Jurassic World","La Fille Du Regiment Met Summer Encore","Mad Max: Fury Road","Mad Max: Fury Road 3D","Mission: Impossible \u2013 Rogue Nation","Monkey Kingdom","Paul Blart: Mall Cop 2","Pitch Perfect 2","Poltergeist (2015)","Poltergeist 3D (2015)","The D Train (2015)","The Merry Widow Met Summer Encore","Tomorrowland","UFC 187: Johnson vs Cormier Live ","UFC 188: Velasquez vs Werdum Live"],"Address":"650 Plaza Drive Secaucus, NJ 07094","Latitude":40.78,"Longitude":40.78}
{"Name":"Frank Theatres South Cove Stadium 12","Phone":"212-123-3212","movies":["The Age of Adaline","Avengers: Age of Ultron (2015)","Avengers: Age of Ultron 3D (2015)","Ex Machina","Furious 7","Home","Hot Pursuit","Mad Max: Fury Road","Mad Max: Fury Road 3D","Paul Blart: Mall Cop 2","Pitch Perfect 2","Poltergeist (2015)","Poltergeist 3D (2015)","Tomorrowland"],"Address":"191 Lefante Way Bayonne, NJ 07002","Latitude":40.66,"Longitude":40.66}
{"Name":"Linden Blvd. Multiplex","Phone":"212-123-3212","movies":["Avengers: Age of Ultron (2015)","Avengers: Age of Ultron 3D (2015)","Cinderella (2015)","Furious 7","Get Hard","Home","Hot Pursuit","Jurassic World","Mad Max: Fury Road","Mad Max: Fury Road 3D","Mission: Impossible \u2013 Rogue Nation","Paul Blart: Mall Cop 2","Pitch Perfect 2","San Andreas","San Andreas 3D","Tomorrowland","Unfriended"],"Address":"2784 Linden Blvd. Brooklyn, NY 11208","Latitude":40.67,"Longitude":40.67}
{"Name":"Cinemart Cinemas","Phone":"212-123-3212","movies":["Cinderella (2015)","Danny Collins","Dior and I","Home","Hot Pursuit","Monkey Kingdom","The Second Best Exotic Marigold Hotel","Welcome to Me","Woman in Gold"],"Address":"106-03 Metropolitan Ave. Forest Hills, NY 11379","Latitude":40.71,"Longitude":40.71}
{"Name":"UA Midway Stadium 9","Phone":"212-123-3212","movies":["The Age of Adaline","Aloha","Avengers: Age of Ultron (2015)","Avengers: Age of Ultron 3D (2015)","Ex Machina","Furious 7","Home","Inside Out","Inside Out 3D","Jurassic World","Mad Max: Fury Road","Mad Max: Fury Road 3D","Paul Blart: Mall Cop 2","Pitch Perfect 2","Poltergeist (2015)","Poltergeist 3D (2015)","San Andreas","San Andreas 3D","Tomorrowland"],"Address":"108-22 Queens Blvd. Forest Hills, NY 11375","Latitude":40.72,"Longitude":40.72}
{"Name":"Edgewater Multiplex Cinemas","Phone":"212-123-3212","movies":["The Age of Adaline","All Work All Play: The Pursuit of eSports Glory Live","Avengers: Age of Ultron (2015)","Avengers: Age of Ultron 3D (2015)","Classic Music Series: R.E.M. by MTV","DCI 2015 Tour Premiere","Ex Machina","Exhibition OnScreen: The Impressionists","Far From The Madding Crowd (2015)","Fare Thee Well: Celebrating the Grateful Dead","Furious 7","Home","Hot Pursuit","Insider Access to Disney Pixar\u2019s Inside Out","Jurassic World","Mad Max: Fury Road","Mad Max: Fury Road 3D","The Met Summer Encore: La Fille du Regiment","Mission: Impossible \u2013 Rogue Nation","Monkey Kingdom","Noble","Paul Blart: Mall Cop 2","Pitch Perfect 2","San Andreas","San Andreas 3D","The D Train (2015)","The Merry Widow Met Summer Encore","Tomorrowland","UFC 187: Johnson vs Cormier Live ","Woman in Gold"],"Address":"336 River Road Edgewater, NJ 07020","Latitude":40.82,"Longitude":40.82}
{"Name":"UA Sheepshead Bay Stadium 14 IMAX & RPX","Phone":"212-123-3212","movies":["The Age of Adaline","Aloha","Avengers: Age of Ultron (2015)","Avengers: Age of Ultron 3D (2015)","Avengers: Age of Ultron An IMAX 3D Experience (2015)","Ex Machina","Furious 7","Home","Hot Pursuit","Inside Out","Inside Out 3D","Jurassic World","Jurassic World: An IMAX 3D Experience","Mad Max: Fury Road","Mad Max: Fury Road 3D","Mission: Impossible \u2013 Rogue Nation: An IMAX Experience","Paul Blart: Mall Cop 2","Pitch Perfect 2","Poltergeist (2015)","Poltergeist 3D (2015)","San Andreas","San Andreas 3D","Tomorrowland","Tomorrowland: The IMAX Experience ","Unfriended"],"Address":"3907 Shore Pkwy. Brooklyn, NY 11235","Latitude":40.58,"Longitude":40.58}
{"Name":"AMC Magic Johnson Harlem 9","Phone":"212-123-3212","movies":["The Age of Adaline","Avengers: Age of Ultron (2015)","Avengers: Age of Ultron 3D (2015)","Furious 7","Home","Insidious: Chapter 3","Jurassic World","Mad Max: Fury Road","Mad Max: Fury Road 3D","Mission: Impossible \u2013 Rogue Nation","Monkey Kingdom","Paul Blart: Mall Cop 2","Pitch Perfect 2","Poltergeist 3D (2015)","San Andreas 3D"],"Address":"2309 Frederick Douglass Blvd. New York, NY 10027","Latitude":40.81,"Longitude":40.81}
{"Name":"Kew Gardens Cinemas","Phone":"212-123-3212","movies":["5 Flights Up","Bombay Velvet","Clouds of Sils Maria","Far From The Madding Crowd (2015)","Felix and Meira","National Theatre Live: Man and Superman","While We're Young","Woman in Gold"],"Address":"81-05 Lefferts Blvd. Kew Gardens, NY 11415","Latitude":40.7,"Longitude":40.7}
{"Name":"Main Street Cinemas","Phone":"212-123-3212","movies":["Avengers: Age of Ultron (2015)","Avengers: Age of Ultron 3D (2015)","Ex Machina","Furious 7","Home","Mad Max: Fury Road","Mad Max: Fury Road 3D","Paul Blart: Mall Cop 2","Pitch Perfect 2","Poltergeist (2015)","The D Train (2015)","Tomorrowland"],"Address":"72-66 Main St. Kew Garden Hills, NY 11367","Latitude":40.72,"Longitude":40.72}
{"Name":"College Point Multiplex","Phone":"212-123-3212","movies":["The Age of Adaline","All Work All Play: The Pursuit of eSports Glory Live","Avengers: Age of Ultron (2015)","Avengers: Age of Ultron 3D (2015)","Classic Music Series: R.E.M. by MTV","Exhibition OnScreen: The Impressionists","Fare Thee Well: Celebrating the Grateful Dead","Furious 7","Home","Hot Pursuit","Insider Access to Disney Pixar\u2019s Inside Out","Jurassic World","Mad Max: Fury Road","Mad Max: Fury Road 3D","The Met Summer Encore: La Fille du Regiment","Mission: Impossible \u2013 Rogue Nation","Paul Blart: Mall Cop 2","Pitch Perfect 2","San Andreas","San Andreas 3D","The Merry Widow Met Summer Encore","Tomorrowland","Unfriended"],"Address":"2855 Ulmer St. Whitestone, NY 11357","Latitude":40.78,"Longitude":40.78}
{"Name":"Concourse Plaza Multiplex","Phone":"212-123-3212","movies":["Avengers: Age of Ultron (2015)","Avengers: Age of Ultron 3D (2015)","Furious 7","Home","Hot Pursuit","Jurassic World","Mad Max: Fury Road","Mad Max: Fury Road 3D","Mission: Impossible \u2013 Rogue Nation","Monkey Kingdom","Paul Blart: Mall Cop 2","Pitch Perfect 2","San Andreas","San Andreas 3D","Tomorrowland","Unfriended"],"Address":"214 East 161st Street Bronx, NY 10451","Latitude":40.82,"Longitude":40.82}
{"Name":"AMC Loews Jersey Gardens 20","Phone":"212-123-3212","movies":["The Age of Adaline","Aloha","Avengers: Age of Ultron (2015)","Avengers: Age of Ultron 3D (2015)","Avengers: Age of Ultron An IMAX 3D Experience (2015)","Bombay Velvet","Cinderella (2015)","The Divergent Series: Insurgent","Ex Machina","Furious 7","Gabbar is Back","Get Hard","Home","Home 3D","Hot Pursuit","Infini","Inside Out","Inside Out 3D","Jurassic World","Jurassic World: An IMAX 3D Experience","Little Boy","Mad Max: Fury Road","Mad Max: Fury Road 3D","Mission: Impossible \u2013 Rogue Nation","Mission: Impossible \u2013 Rogue Nation: An IMAX Experience","Paul Blart: Mall Cop 2","Piku","Pitch Perfect 2","Poltergeist (2015)","Poltergeist 3D (2015)","San Andreas","San Andreas 3D","Sister Code","The D Train (2015)","Tomorrowland","Tomorrowland: The IMAX Experience ","Unfriended","War Room","Where Hope Grows"],"Address":"651 Kapkowski Road Elizabeth, NJ 07201","Latitude":40.67,"Longitude":40.67}
{"Name":"Lincoln Cinemas","Phone":"212-123-3212","movies":["The Age of Adaline","Avengers: Age of Ultron (2015)","Cinderella (2015)","The Divergent Series: Insurgent","Mad Max: Fury Road","Paul Blart: Mall Cop 2"],"Address":"838 Kearny Ave Kearny, NJ 07032","Latitude":40.75,"Longitude":40.75}
{"Name":"UA Staten Island Stadium 16 & RPX","Phone":"212-123-3212","movies":["The Age of Adaline","Aloha","Avengers: Age of Ultron (2015)","Avengers: Age of Ultron 3D (2015)","Ex Machina","Far From The Madding Crowd (2015)","Furious 7","Home","Hot Pursuit","Inside Out","Inside Out 3D","Jurassic World","Little Boy","Mad Max: Fury Road","Mad Max: Fury Road 3D","Mission: Impossible \u2013 Rogue Nation","Noble","Paul Blart: Mall Cop 2","Pitch Perfect 2","Poltergeist (2015)","Poltergeist 3D (2015)","San Andreas","San Andreas 3D","The D Train (2015)","Tomorrowland","Unfriended"],"Address":"2474 Forest Ave. Staten Island, NY 10303","Latitude":40.63,"Longitude":40.63}
{"Name":"Bombay Theatre","Phone":"212-123-3212","movies":["Piku"],"Address":"6825 Fresh Meadow Lane Flushing, NY 11365","Latitude":40.73,"Longitude":40.73}
{"Name":"UA Hylan Plaza 5","Phone":"212-123-3212","movies":["The Age of Adaline","Avengers: Age of Ultron (2015)","Avengers: Age of Ultron 3D (2015)","Ex Machina","Mad Max: Fury Road","Mad Max: Fury Road 3D","Paul Blart: Mall Cop 2","Pitch Perfect 2","Poltergeist (2015)","Poltergeist 3D (2015)"],"Address":"107 Mill Road Staten Island, NY 10306","Latitude":40.56,"Longitude":40.56}
{"Name":"Starplex Cinemas Ridgefield Park","Phone":"212-123-3212","movies":["The Age of Adaline","Avengers: Age of Ultron (2015)","Avengers: Age of Ultron 3D (2015)","Ex Machina","Furious 7","Home","Home 3D","Hot Pursuit","Mad Max: Fury Road","Mad Max: Fury Road 3D","Paul Blart: Mall Cop 2","Pitch Perfect 2","Unfriended"],"Address":"75 Challenger Road Ridgefield Park, NJ 07660","Latitude":40.85,"Longitude":40.85}
{"Name":"Williams Center Cinemas 2","Phone":"212-123-3212","movies":["Cinderella (2015)","The Divergent Series: Insurgent","Furious 7","Mad Max: Fury Road"],"Address":"1 Williams Plaza Rutherford, NJ 07070","Latitude":40.82,"Longitude":40.82}
{"Name":"CityPlex 12 Newark","Phone":"212-123-3212","movies":["Avengers: Age of Ultron (2015)","Avengers: Age of Ultron 3D (2015)","Furious 7","Get Hard","Home","Mad Max: Fury Road","Mad Max: Fury Road 3D","Paul Blart: Mall Cop 2","Pitch Perfect 2","Unfriended"],"Address":"360-394 Springfield Ave. Newark, NJ 07103","Latitude":40.73,"Longitude":40.73}
{"Name":"AMC Loews Fresh Meadows 7","Phone":"212-123-3212","movies":["The Age of Adaline","Avengers: Age of Ultron (2015)","Avengers: Age of Ultron 3D (2015)","Furious 7","Hot Pursuit","Mad Max: Fury Road","Mad Max: Fury Road 3D","Mission: Impossible \u2013 Rogue Nation","Pitch Perfect 2","Poltergeist 3D (2015)","San Andreas 3D","Tomorrowland"],"Address":"190-02 Horace Harding Blvd. Fresh Meadows, NY 11365","Latitude":40.73,"Longitude":40.73}
{"Name":"Jamaica Multiplex Cinemas","Phone":"212-123-3212","movies":["The Age of Adaline","Avengers: Age of Ultron (2015)","Avengers: Age of Ultron 3D (2015)","Bombay Velvet","Furious 7","Gabbar is Back","Home","Hot Pursuit","Jurassic World","Mad Max: Fury Road","Mad Max: Fury Road 3D","Mission: Impossible \u2013 Rogue Nation","Monkey Kingdom","Paul Blart: Mall Cop 2","Piku","Pitch Perfect 2","San Andreas","San Andreas 3D","Tomorrowland","Unfriended"],"Address":"159-02 Jamaica Ave. Jamaica, NY 11432","Latitude":40.71,"Longitude":40.71}
{"Name":"AMC Clifton Commons 16","Phone":"212-123-3212","movies":["The Age of Adaline","Aida Met Summer Encore","Avengers: Age of Ultron (2015)","Avengers: Age of Ultron 3D (2015)","Avengers: Age of Ultron An IMAX 3D Experience (2015)","Cinderella (2015)","DCI 2015 Tour Premiere","Ex Machina","Exhibition OnScreen: The Impressionists","Far From The Madding Crowd (2015)","Fare Thee Well: Celebrating the Grateful Dead","Furious 7","Home","Home 3D","Hot Pursuit","Inside Out","Inside Out 3D","Insider Access to Disney Pixar\u2019s Inside Out","Insidious: Chapter 3","Jurassic World","Jurassic World: An IMAX 3D Experience","La Fille Du Regiment Met Summer Encore","Mad Max: Fury Road","Mad Max: Fury Road 3D","Mission: Impossible \u2013 Rogue Nation","Mission: Impossible \u2013 Rogue Nation: An IMAX Experience","Paul Blart: Mall Cop 2","Pitch Perfect 2","Poltergeist (2015)","Poltergeist 3D (2015)","San Andreas","San Andreas 3D","The D Train (2015)","The Merry Widow Met Summer Encore","Tomorrowland","Unfriended","Where Hope Grows"],"Address":"405 Route 3 East Clifton, NJ 07014","Latitude":40.83,"Longitude":40.83}
{"Name":"AMC Loews Bay Terrace 6","Phone":"212-123-3212","movies":["The Age of Adaline","Avengers: Age of Ultron (2015)","Avengers: Age of Ultron 3D (2015)","Ex Machina","Furious 7","Home","Paul Blart: Mall Cop 2","Pitch Perfect 2"],"Address":"211-01 26th Ave. Bayside, NY 11360","Latitude":40.78,"Longitude":40.78}
{"Name":"Atrium Cinema","Phone":"212-123-3212","movies":["The Age of Adaline","Avengers: Age of Ultron (2015)","Avengers: Age of Ultron 3D (2015)","Furious 7","Home","Hot Pursuit","Mad Max: Fury Road","Mad Max: Fury Road 3D","Monkey Kingdom","Paul Blart: Mall Cop 2","Pitch Perfect 2","Unfriended"],"Address":"680 Arthur Kill Rd. Staten Island, NY 10308","Latitude":40.55,"Longitude":40.55}
{"Name":"Teaneck Cinemas","Phone":"212-123-3212","movies":["Avengers: Age of Ultron (2015)","Avengers: Age of Ultron 3D (2015)","Danny Collins","Ex Machina","Mad Max: Fury Road","Pitch Perfect 2","While We're Young"],"Address":"503 Cedar Lane Teaneck, NJ 07666","Latitude":40.89,"Longitude":40.89}
{"Name":"Allwood Cinemas 6","Phone":"212-123-3212","movies":["The Age of Adaline","Avengers: Age of Ultron (2015)","Danny Collins","Mad Max: Fury Road","Monkey Kingdom","Paul Blart: Mall Cop 2","Pitch Perfect 2","Poltergeist (2015)"],"Address":"96 Market St. Clifton, NJ 07011","Latitude":40.88,"Longitude":40.88}
{"Name":"Movieworld At Douglaston","Phone":"212-123-3212","movies":["5 Flights Up","The Age of Adaline","Avengers: Age of Ultron (2015)","Avengers: Age of Ultron 3D (2015)","Hot Pursuit","Mad Max: Fury Road","Mad Max: Fury Road 3D","Pitch Perfect 2","Poltergeist (2015)","The D Train (2015)"],"Address":"242-02 61st Ave. Douglaston, NY 11363","Latitude":40.77,"Longitude":40.77}
{"Name":"AMC Aviation 12","Phone":"212-123-3212","movies":["The Age of Adaline","Aloha","Avengers: Age of Ultron (2015)","Avengers: Age of Ultron 3D (2015)","Avengers: Age of Ultron An IMAX 3D Experience (2015)","Ex Machina","Furious 7","Home","Hot Pursuit","Inside Out","Inside Out 3D","Insidious: Chapter 3","Jurassic World: An IMAX 3D Experience","Little Boy","Mad Max: Fury Road","Mad Max: Fury Road 3D","Mission: Impossible \u2013 Rogue Nation","Mission: Impossible \u2013 Rogue Nation: An IMAX Experience","Paul Blart: Mall Cop 2","Pitch Perfect 2","Poltergeist 3D (2015)","San Andreas","San Andreas 3D","Tomorrowland","Tomorrowland: The IMAX Experience ","Unfriended"],"Address":"1200 South Stiles Street Linden, NJ 07036","Latitude":40.62,"Longitude":40.62}
{"Name":"Bow Tie South Orange Cinemas","Phone":"212-123-3212","movies":["Furious 7","Home","Jurassic World","Mad Max: Fury Road","Mad Max: Fury Road 3D","Paul Blart: Mall Cop 2","Poltergeist (2015)","Poltergeist 3D (2015)","San Andreas","San Andreas 3D"],"Address":"1 SOPAC Way South Orange, NJ 07079","Latitude":40.74,"Longitude":40.74}
{"Name":"Bow Tie Cinemas Clairidge Cinemas","Phone":"212-123-3212","movies":["Ex Machina","Far From The Madding Crowd (2015)","The D Train (2015)","Woman in Gold"],"Address":"486 Bloomfield Ave. Montclair, NJ 07042","Latitude":40.81,"Longitude":40.81}
{"Name":"Union Theaters","Phone":"212-123-3212","movies":["Adult Beginners","Avengers: Age of Ultron (2015)","Furious 7","Home","Mad Max: Fury Road","Paul Blart: Mall Cop 2","Pitch Perfect 2","Poltergeist (2015)","Unfriended"],"Address":"990 Stuyvesant Ave. Union, NJ 07083","Latitude":40.69,"Longitude":40.69}
{"Name":"AMC Bay Plaza Cinema 13","Phone":"212-123-3212","movies":["The Age of Adaline","Aloha","Avengers: Age of Ultron (2015)","Avengers: Age of Ultron 3D (2015)","Furious 7","Get Hard","Home","Home 3D","Hot Pursuit","Insider Access to Disney Pixar\u2019s Inside Out","Insidious: Chapter 3","Jurassic World","Mad Max: Fury Road","Mad Max: Fury Road 3D","Mission: Impossible \u2013 Rogue Nation","Paul Blart: Mall Cop 2","Pitch Perfect 2","Poltergeist (2015)","Poltergeist 3D (2015)","San Andreas","San Andreas 3D","Tomorrowland","Unfriended"],"Address":"2210 Bartow Ave. Bronx, NY 10475","Latitude":40.87,"Longitude":40.87}
{"Name":"North Shore Towers","Phone":"212-123-3212","movies":["Clouds of Sils Maria","Danny Collins","While We're Young"],"Address":"470 Grand Central Parkway Floral Park, NY 11005","Latitude":40.75,"Longitude":40.75}
{"Actors":["Blake Lively","Michiel Huisman","Harrison Ford"],"Rating":"Rated PG-13","Genre":["Drama","Romance"],"Poster":"http://ia.media-imdb.com/images/M/MV5BMTAzMTQzMTA2MjheQTJeQWpwZ15BbWU4MDk2MTg2MzUx._V1_SX214_AL_.jpg","Synopsis":"A young woman, born at the turn of the 20th century, is rendered ageless after an accident. After many solitary years, she meets a man who complicates the eternal life she has settled into.","Trailer":"clbSd2JzAqc","ReleaseDate":"24 April 2015","Title":"The Age of Adaline"}
{"Actors":["Emma Stone","Rachel McAdams","Bradley Cooper"],"Rating":"Rated PG-13","Genre":["Comedy","Drama","Romance"],"Poster":"http://ia.media-imdb.com/images/M/MV5BMTQzMzExMDI0NF5BMl5BanBnXkFtZTgwMDc3NTQ1NTE@._V1_SX214_AL_.jpg","Synopsis":"A celebrated military contractor returns to the site of his greatest career triumphs and re-connects with a long-ago love while unexpectedly falling for the hard-charging Air Force watchdog assigned to him.","Trailer":"O3mf_ewjc7s","ReleaseDate":"29 May 2015","Title":"Aloha"}
{"Actors":["Robert Downey Jr.","Chris Evans","Mark Ruffalo"],"Rating":"Rated PG-13","Genre":["Action","Adventure","Sci-Fi"],"Poster":"http://ia.media-imdb.com/images/M/MV5BMTU4MDU3NDQ5Ml5BMl5BanBnXkFtZTgwOTU5MDUxNTE@._V1_SY317_CR1,0,214,317_AL_.jpg","Synopsis":"When Tony Stark and Bruce Banner try to jump-start a dormant peacekeeping program called Ultron, things go horribly wrong and it's up to Earth's Mightiest Heroes to stop the villainous Ultron from enacting his terrible plans.","Trailer":"u1OKBqHICMQ","ReleaseDate":"1 May 2015","Title":"Avengers: Age of Ultron (2015)"}
{"Actors":["Robert Downey Jr.","Chris Evans","Mark Ruffalo"],"Rating":"Rated PG-13","Genre":["Action","Adventure","Sci-Fi"],"Poster":"http://ia.media-imdb.com/images/M/MV5BMTU4MDU3NDQ5Ml5BMl5BanBnXkFtZTgwOTU5MDUxNTE@._V1_SY317_CR1,0,214,317_AL_.jpg","Synopsis":"When Tony Stark and Bruce Banner try to jump-start a dormant peacekeeping program called Ultron, things go horribly wrong and it's up to Earth's Mightiest Heroes to stop the villainous Ultron from enacting his terrible plans.","Trailer":"u1OKBqHICMQ","ReleaseDate":"1 May 2015","Title":"Avengers: Age of Ultron 3D (2015)"}
{"Actors":["Alicia Vikander","Domhnall Gleeson","Oscar Isaac"],"Rating":"Rated R","Genre":["Drama","Sci-Fi"],"Poster":"http://ia.media-imdb.com/images/M/MV5BMTUxNzc0OTIxMV5BMl5BanBnXkFtZTgwNDI3NzU2NDE@._V1_SX214_AL_.jpg","Synopsis":"A young programmer is selected to participate in a breakthrough experiment in artificial intelligence by evaluating the human qualities of a breathtaking female A.I.","Trailer":"XYGzRB4Pnq8","ReleaseDate":"24 April 2015","Title":"Ex Machina"}
{"Actors":["Vin Diesel","Paul Walker","Dwayne Johnson"],"Rating":"Rated PG-13","Genre":["Action","Crime","Thriller"],"Poster":"http://ia.media-imdb.com/images/M/MV5BMTQxOTA2NDUzOV5BMl5BanBnXkFtZTgwNzY2MTMxMzE@._V1_SX214_AL_.jpg","Synopsis":"Deckard Shaw seeks revenge against Dominic Toretto and his family for his comatose brother.","Trailer":"k94wBXeauao","ReleaseDate":"3 April 2015","Title":"Furious 7"}
{"Actors":["Jim Parsons","Rihanna","Steve Martin"],"Rating":"Rated PG","Genre":["Animation","Adventure","Comedy","Family","Fantasy","Sci-Fi"],"Poster":"http://ia.media-imdb.com/images/M/MV5BMTU0MzU4ODI3Ml5BMl5BanBnXkFtZTgwMzQzODk5NDE@._V1_SX214_AL_.jpg","Synopsis":"Oh, an alien on the run from his own people, lands on Earth and makes friends with the adventurous Tip, who is on a quest of her own.","Trailer":"iLGDJkhYnVc","ReleaseDate":"27 March 2015","Title":"Home"}
{"Actors":["Reese Witherspoon","Sofía Vergara","Matthew Del Negro"],"Rating":"Rated PG-13","Genre":["Action","Comedy"],"Poster":"http://ia.media-imdb.com/images/M/MV5BNzc0MDk0NDMwM15BMl5BanBnXkFtZTgwNTIzMjE1NTE@._V1_SX214_AL_.jpg","Synopsis":"An uptight and by-the-book cop tries to protect the outgoing widow of a drug boss as they race through Texas pursued by crooked cops and murderous gunmen.","Trailer":"fUeOBdxSjc8","ReleaseDate":"8 May 2015","Title":"Hot Pursuit"}
{"Actors":["Diane Lane","Amy Poehler","Mindy Kaling"],"Rating":"Rated PG","Genre":["Animation","Comedy","Family"],"Poster":"http://ia.media-imdb.com/images/M/MV5BOTgxMDQwMDk0OF5BMl5BanBnXkFtZTgwNjU5OTg2NDE@._V1_SX214_AL_.jpg","Synopsis":"After a girl moves to a new home, her emotions are plunged into chaos as they compete for control of her mind.","Trailer":"1t0A_tZGrYw","ReleaseDate":"19 June 2015","Title":"Inside Out"}
{"Actors":["Diane Lane","Amy Poehler","Mindy Kaling"],"Rating":"Rated PG","Genre":["Animation","Comedy","Family"],"Poster":"http://ia.media-imdb.com/images/M/MV5BOTgxMDQwMDk0OF5BMl5BanBnXkFtZTgwNjU5OTg2NDE@._V1_SX214_AL_.jpg","Synopsis":"After a girl moves to a new home, her emotions are plunged into chaos as they compete for control of her mind.","Trailer":"1t0A_tZGrYw","ReleaseDate":"19 June 2015","Title":"Inside Out 3D"}
{"Actors":["Chris Pratt","Judy Greer","Ty Simpkins"],"Rating":"Not yet rated","Genre":["Action","Adventure","Sci-Fi","Thriller"],"Poster":"http://ia.media-imdb.com/images/M/MV5BMTQ5MTE0MTk3Nl5BMl5BanBnXkFtZTgwMjczMzk2NTE@._V1_SX214_AL_.jpg","Synopsis":"Twenty-two years after the events of <a href=\"/title/tt0107290\">Jurassic Park<\/a> (1993), Isla Nublar now features a fully functioning dinosaur theme park, Jurassic World, as originally envisioned by John Hammond. After 10 years of operation and visitor rates declining, in order to fulfill a corporate mandate, a new attraction is created to re-spark visitor's interest, which backfires horribly.","Trailer":"YvR0UaEKjp0","ReleaseDate":"12 June 2015","Title":"Jurassic World"}
{"Actors":["Tom Hardy","Charlize Theron","Nicholas Hoult"],"Rating":"Rated R","Genre":["Action","Adventure","Sci-Fi","Thriller"],"Poster":"http://ia.media-imdb.com/images/M/MV5BMTUyMTE0ODcxNF5BMl5BanBnXkFtZTgwODE4NDQzNTE@._V1_SY317_CR2,0,214,317_AL_.jpg","Synopsis":"In a stark desert landscape where humanity is broken, two rebels just might be able to restore order: Max, a man of action and of few words, and Furiosa, a woman of action who is looking to make it back to her childhood homeland.","Trailer":"vjBb4SZ0F6Q","ReleaseDate":"15 May 2015","Title":"Mad Max: Fury Road"}
{"Actors":["Tom Hardy","Charlize Theron","Nicholas Hoult"],"Rating":"Rated R","Genre":["Action","Adventure","Sci-Fi","Thriller"],"Poster":"http://ia.media-imdb.com/images/M/MV5BMTUyMTE0ODcxNF5BMl5BanBnXkFtZTgwODE4NDQzNTE@._V1_SY317_CR2,0,214,317_AL_.jpg","Synopsis":"In a stark desert landscape where humanity is broken, two rebels just might be able to restore order: Max, a man of action and of few words, and Furiosa, a woman of action who is looking to make it back to her childhood homeland.","Trailer":"FzW1bHHOlJ4","ReleaseDate":"15 May 2015","Title":"Mad Max: Fury Road 3D"}
{"Actors":["Tom Cruise","Jeremy Renner","Simon Pegg"],"Rating":"Not yet rated","Genre":["Action","Adventure","Thriller"],"Poster":"http://ia.media-imdb.com/images/M/MV5BMTQ1NDI2MzU2MF5BMl5BanBnXkFtZTgwNTExNTU5NDE@._V1_SX214_AL_.jpg","Synopsis":"Ethan and team take on their most impossible mission yet, eradicating the Syndicate - an International rogue organization as highly skilled as they are, committed to destroying the IMF.","Trailer":"E66Cimpp9Vw","ReleaseDate":"31 July 2015","Title":"Mission: Impossible \u2013 Rogue Nation"}
{"Actors":["Kevin James","Raini Rodriguez","Eduardo Verástegui"],"Rating":"Rated PG","Genre":["Action","Comedy"],"Poster":"http://ia.media-imdb.com/images/M/MV5BMTkwMjkxNDQ1MV5BMl5BanBnXkFtZTgwNDQwODIxNTE@._V1_SX214_AL_.jpg","Synopsis":"After six years of keeping our malls safe, Paul Blart has earned a well-deserved vacation. He heads to Vegas with his teenage daughter before she heads off to college. But safety never takes a holiday and when duty calls, Blart answers.","Trailer":"b_ld3IJ0sUU","ReleaseDate":"17 April 2015","Title":"Paul Blart: Mall Cop 2"}
{"Actors":["Anna Kendrick","Rebel Wilson","Hailee Steinfeld"],"Rating":"Rated PG-13","Genre":["Comedy","Music"],"Poster":"http://ia.media-imdb.com/images/M/MV5BMTk0Mzg4NDYyOF5BMl5BanBnXkFtZTgwOTM2ODg2NTE@._V1_SX214_AL_.jpg","Synopsis":"After a humiliating command performance at Lincoln Center, the Barden Bellas enter an international competition that no American group has ever won in order to regain their status and right to perform.","Trailer":"KBwOYQd21TY","ReleaseDate":"15 May 2015","Title":"Pitch Perfect 2"}
{"Actors":["Sam Rockwell","Rosemarie DeWitt","Kennedi Clements"],"Rating":"Rated PG-13","Genre":["Horror","Thriller"],"Poster":"http://ia.media-imdb.com/images/M/MV5BMjIzNTI1ODgwM15BMl5BanBnXkFtZTgwMDYwODA1NTE@._V1_SX214_AL_.jpg","Synopsis":"A family whose suburban home is haunted by evil forces must come together to rescue their youngest daughter after the apparitions take her captive.","Trailer":"ViWTPto3atU","ReleaseDate":"22 May 2015","Title":"Poltergeist (2015)"}
{"Actors":["Sam Rockwell","Rosemarie DeWitt","Kennedi Clements"],"Rating":"Rated PG-13","Genre":["Horror","Thriller"],"Poster":"http://ia.media-imdb.com/images/M/MV5BMjIzNTI1ODgwM15BMl5BanBnXkFtZTgwMDYwODA1NTE@._V1_SX214_AL_.jpg","Synopsis":"A family whose suburban home is haunted by evil forces must come together to rescue their youngest daughter after the apparitions take her captive.","ReleaseDate":"22 May 2015","Title":"Poltergeist 3D (2015)"}
{"Actors":["Dwayne Johnson","Alexandra Daddario","Carla Gugino"],"Rating":"Rated PG-13","Genre":["Action","Drama","Thriller"],"Poster":"http://ia.media-imdb.com/images/M/MV5BNDQ3OTAzMDI3MV5BMl5BanBnXkFtZTgwNTUzMTQ3NDE@._V1_SX214_AL_.jpg","Synopsis":"In the aftermath of a massive earthquake in California, a rescue-chopper pilot makes a dangerous journey across the state in order to rescue his estranged daughter.","Trailer":"Bz9e0PGSDeU","ReleaseDate":"29 May 2015","Title":"San Andreas"}
{"Actors":["Dwayne Johnson","Alexandra Daddario","Carla Gugino"],"Rating":"Rated PG-13","Genre":["Action","Drama","Thriller"],"Poster":"http://ia.media-imdb.com/images/M/MV5BNDQ3OTAzMDI3MV5BMl5BanBnXkFtZTgwNTUzMTQ3NDE@._V1_SX214_AL_.jpg","Synopsis":"In the aftermath of a massive earthquake in California, a rescue-chopper pilot makes a dangerous journey across the state in order to rescue his estranged daughter.","Trailer":"FY1U9Mq0eQc","ReleaseDate":"29 May 2015","Title":"San Andreas 3D"}
{"Actors":["George Clooney","Britt Robertson","Hugh Laurie"],"Rating":"Rated PG","Genre":["Action","Adventure","Mystery","Sci-Fi"],"Poster":"http://ia.media-imdb.com/images/M/MV5BMTQ4OTgzNTkwNF5BMl5BanBnXkFtZTgwMzI3MDE3NDE@._V1_SX214_AL_.jpg","Synopsis":"Bound by a shared destiny, a teen bursting with scientific curiosity and a former boy-genius inventor embark on a mission to unearth the secrets of a place somewhere in time and space that exists in their collective memory.","Trailer":"1k59gXTWf-A","ReleaseDate":"22 May 2015","Title":"Tomorrowland"}
{"Actors":["Lily James","Cate Blanchett","Richard Madden"],"Rating":"Rated PG","Genre":["Drama","Family","Fantasy","Romance"],"Poster":"http://ia.media-imdb.com/images/M/MV5BMjMxODYyODEzN15BMl5BanBnXkFtZTgwMDk4OTU0MzE@._V1_SX214_AL_.jpg","Synopsis":"When her father unexpectedly passes away, young Ella finds herself at the mercy of her cruel stepmother and her daughters. Never one to give up hope, Ella's fortunes begin to change after meeting a dashing stranger.","Trailer":"McQ_cCBaiac","ReleaseDate":"13 March 2015","Title":"Cinderella (2015)"}
{"Actors":["Will Ferrell","Kevin Hart","Alison Brie"],"Rating":"Rated R","Genre":["Comedy"],"Poster":"http://ia.media-imdb.com/images/M/MV5BMTc3OTc1NjM0M15BMl5BanBnXkFtZTgwNjAyMzE1MzE@._V1_SX214_AL_.jpg","Synopsis":"When millionaire James King is jailed for fraud and bound for San Quentin, he turns to Darnell Lewis to prep him to go behind bars.","Trailer":"l5lojEIitNw","ReleaseDate":"27 March 2015","Title":"Get Hard"}
{"Actors":["Carey Mulligan","Matthias Schoenaerts","Michael Sheen"],"Rating":"Rated PG-13","Genre":["Drama"],"Poster":"http://ia.media-imdb.com/images/M/MV5BMTQzNjE5Mjk5MV5BMl5BanBnXkFtZTgwMzQ3NDMwNTE@._V1_SX214_AL_.jpg","Synopsis":"In Victorian England, the independent and headstrong Bathsheba Everdene attracts three very different suitors: Gabriel Oak, a sheep farmer; Frank Troy, a reckless Sergeant; and William Boldwood, a prosperous and mature bachelor.","Trailer":"D9MclJzXe9g","ReleaseDate":"1 May 2015","Title":"Far From The Madding Crowd (2015)"}
{"Actors":["Sebastião Salgado","Wim Wenders","Juliano Ribeiro Salgado"],"Rating":"Rated PG-13","Genre":["Documentary","Biography"],"Poster":"http://ia.media-imdb.com/images/M/MV5BNjkyNjI3ODc0Ml5BMl5BanBnXkFtZTgwMTU0MjM2NDE@._V1_SX214_AL_.jpg","Synopsis":"For the last 40 years, the photographer Sebastião Salgado has been travelling through the continents, in the footsteps of an ever-changing humanity. He has witnessed some of the major ...","Trailer":"jgd3ZDtx8lg","ReleaseDate":"27 March 2015","Title":"The Salt of the Earth"}
{"Actors":["Kodi Smit-McPhee","Caren Pistorius","Aorere Paki"],"Rating":"Rated R","Genre":["Action","Thriller","Western"],"Poster":"http://ia.media-imdb.com/images/M/MV5BNTYxNDA5ODk5NF5BMl5BanBnXkFtZTgwNzMwMzIwNTE@._V1_SX214_AL_.jpg","Synopsis":"'Slow West' follows a 16-year-old boy on a journey across 19th Century frontier America in search of the woman he loves, while accompanied by mysterious traveler Silas.","Trailer":"pFfsTsdJfF8","ReleaseDate":"16 April 2015","Title":"Slow West"}
{"Actors":["Kristen Wiig","James Marsden","Linda Cardellini"],"Rating":"Rated R","Genre":["Comedy","Drama"],"Poster":"http://ia.media-imdb.com/images/M/MV5BMTA0NTAyNTYwNDheQTJeQWpwZ15BbWU4MDY2ODcyNTQx._V1_SY317_CR0,0,214,317_AL_.jpg","Synopsis":"When Alice Klieg wins the Mega-Millions lottery, she immediately quits her psychiatric meds and buys her own talk show.","Trailer":"r0KEe-hMsLg","ReleaseDate":"1 May 2015","Title":"Welcome to Me"}
{"Actors":["Helen Mirren","Ryan Reynolds","Daniel Brühl"],"Rating":"Rated PG-13","Genre":["Drama"],"Poster":"http://ia.media-imdb.com/images/M/MV5BMTExMTUxNDQ5MjdeQTJeQWpwZ15BbWU4MDk4NTgxMzQx._V1_SX214_AL_.jpg","Synopsis":"Maria Altmann, an octogenarian Jewish refugee, takes on the Austrian government to recover artwork she believes rightfully belongs to her family.","Trailer":"geJeX6iIlO0","ReleaseDate":"10 April 2015","Title":"Woman in Gold"}
{"Actors":["Nick Kroll","Rose Byrne","Bobby Cannavale"],"Rating":"Rated R","Genre":["Comedy","Drama"],"Poster":"http://ia.media-imdb.com/images/M/MV5BMTY1NTI4NDU5Ml5BMl5BanBnXkFtZTgwOTYwMDcyNTE@._V1_SX214_AL_.jpg","Synopsis":"A young, narcissistic entrepreneur crashes and burns on the eve of his company's big launch. With his entire life in total disarray, he leaves Manhattan to move in with his estranged ...","Trailer":"hMY6m0bSTOg","ReleaseDate":"24 April 2015","Title":"Adult Beginners"}
{"Actors":["Maika Monroe","Keir Gilchrist","Olivia Luccardi"],"Rating":"Rated R","Genre":["Horror","Mystery"],"Poster":"http://ia.media-imdb.com/images/M/MV5BMTUwMDEzNDI1MF5BMl5BanBnXkFtZTgwNzAyODU5MzE@._V1_SY317_CR2,0,214,317_AL_.jpg","Synopsis":"A young woman is followed by an unknown supernatural force after getting involved in a sexual encounter.","Trailer":"HkZYbOH0ujw","ReleaseDate":"27 March 2015","Title":"It Follows"}
{"Actors":["Arnold Schwarzenegger","Abigail Breslin","Joely Richardson"],"Rating":"Rated PG-13","Genre":["Drama","Thriller"],"Poster":"http://ia.media-imdb.com/images/M/MV5BMTkyNzk0MTU2Ml5BMl5BanBnXkFtZTgwNDExNzMyNTE@._V1_SX214_AL_.jpg","Synopsis":"A teenage girl in the Midwest becomes infected by an outbreak of a disease that slowly turns the infected into cannibalistic zombies. During her transformation, her loving father stays by her side.","Trailer":"AQ5Vz8qE8R8","ReleaseDate":"8 May 2015","Title":"Maggie"}
{"Actors":["Chris Evans","Michelle Monaghan","Ioan Gruffudd"],"Rating":"Rated R","Genre":["Comedy","Romance"],"Poster":"http://ia.media-imdb.com/images/M/MV5BMjIwMjA2ODU3NF5BMl5BanBnXkFtZTgwMjk2MDA2NTE@._V1_SY317_CR12,0,214,317_AL_.jpg","Synopsis":"Unrequited love motivates a guy to write about his experiences.","Trailer":"JlvyE_Rhzy8","ReleaseDate":"8 May 2015","Title":"Playing It Cool "}
{"Actors":["Tom Hardy","Gary Oldman","Noomi Rapace"],"Rating":"Rated R","Genre":["Drama","Thriller"],"Poster":"http://ia.media-imdb.com/images/M/MV5BMTk1NTkxOTc5Nl5BMl5BanBnXkFtZTgwODI0NTg0NDE@._V1_SX214_AL_.jpg","Synopsis":"A disgraced member of the military police investigates a series of nasty child murders during the Stalin-era Soviet Union.","Trailer":"Uia6y9SRsj4","ReleaseDate":"17 April 2015","Title":"Child 44"}
{"Actors":["James Badge Dale","Ethan Embry","William Forsythe"],"Rating":"Rated R","Genre":["Drama","Thriller","Western"],"Poster":"http://ia.media-imdb.com/images/M/MV5BODU3MTMyODc3OF5BMl5BanBnXkFtZTgwMDYzODg5NDE@._V1_SX214_AL_.jpg","Synopsis":"A Civil War veteran returns home to the quiet countryside, only to find himself embroiled in a conflict between his family and the brutish cattle rancher harassing them.","Trailer":"l_hZNixFNoM","ReleaseDate":"15 April 2015","Title":"Echoes of War (2015)"}
{"Actors":["Tina Fey"],"Rating":"Not yet rated","Genre":["Documentary"],"Poster":"http://ia.media-imdb.com/images/M/MV5BMzIxNDc1MDg0MF5BMl5BanBnXkFtZTgwNTI3ODE4MzE@._V1_SY317_CR0,0,214,317_AL_.jpg","Synopsis":"A nature documentary that follows a newborn monkey and its mother as they struggle to survive within the competitive social hierarchy of the Temple Troop, a dynamic group of monkeys who ...","Trailer":"Qwh6_bMcGl4","ReleaseDate":"17 April 2015","Title":"Monkey Kingdom"}
{"Actors":["Heather Sossaman","Matthew Bohrer","Courtney Halverson"],"Rating":"Rated R","Genre":["Horror","Thriller"],"Poster":"http://ia.media-imdb.com/images/M/MV5BMTUwNzg3Mzg1OV5BMl5BanBnXkFtZTgwMDY2NTAwNDE@._V1_SX214_AL_.jpg","Synopsis":"A group of online chat room friends find themselves haunted by a mysterious, supernatural force using the account of their dead friend.","Trailer":"JQfjW0DLDr0","ReleaseDate":"17 April 2015","Title":"Unfriended"}
{"Actors":["Shailene Woodley","Ansel Elgort","Theo James"],"Rating":"Rated PG-13","Genre":["Adventure","Sci-Fi","Thriller"],"Poster":"http://ia.media-imdb.com/images/M/MV5BMTgxOTYxMTg3OF5BMl5BanBnXkFtZTgwMDgyMzA2NDE@._V1_SX214_AL_.jpg","Synopsis":"Beatrice Prior must confront her inner demons and continue her fight against a powerful alliance which threatens to tear her society apart with the help from others on her side.","Trailer":"suZcGoRLXkU","ReleaseDate":"20 March 2015","Title":"The Divergent Series: Insurgent"}
{"Actors":["Colin Firth","Taron Egerton","Samuel L. Jackson"],"Rating":"Rated R","Genre":["Action","Adventure","Comedy","Crime"],"Poster":"http://ia.media-imdb.com/images/M/MV5BMTkxMjgwMDM4Ml5BMl5BanBnXkFtZTgwMTk3NTIwNDE@._V1_SY317_CR0,0,214,317_AL_.jpg","Synopsis":"A spy organization recruits an unrefined, but promising street kid into the agency's ultra-competitive training program, just as a global threat emerges from a twisted tech genius.","Trailer":"xkX8jKeKUEA","ReleaseDate":"13 February 2015","Title":"Kingsman: The Secret Service"}
{"Actors":["Deirdre O'Kane","Sarah Greene","Gloria Cramer Curtis"],"Rating":"Rated PG-13","Genre":["Biography","Drama"],"Poster":"http://ia.media-imdb.com/images/M/MV5BMTU1NDY2NDE2M15BMl5BanBnXkFtZTgwMzc1NzUwNDE@._V1_SX214_AL_.jpg","Synopsis":"Christina Noble overcomes the harsh difficulties of her childhood in Ireland to discover her destiny on the streets of Saigon. A true story.","Trailer":"griEOgYHS7o","ReleaseDate":"8 May 2015","Title":"Noble"}
{"Actors":["Jack Black","James Marsden","Kathryn Hahn"],"Rating":"Rated R","Genre":["Comedy"],"Poster":"http://ia.media-imdb.com/images/M/MV5BMTQ3ODQzNDE2Ml5BMl5BanBnXkFtZTgwOTM1NzQwNTE@._V1_SX214_AL_.jpg","Synopsis":"The head of a high school reunion committee travels to Los Angeles to track down the most popular guy from his graduating class and convince him to go to the reunion.","Trailer":"kxmo8MA2cjQ","ReleaseDate":"8 May 2015","Title":"The D Train (2015)"}
{"Actors":["Ben Stiller","Naomi Watts","Adam Driver"],"Rating":"Rated R","Genre":["Comedy","Drama"],"Poster":"http://ia.media-imdb.com/images/M/MV5BMTc4MDEzMTA5MF5BMl5BanBnXkFtZTgwODA5MTM0NDE@._V1_SX214_AL_.jpg","Synopsis":"A middle-aged couple's career and marriage are overturned when a disarming young couple enters their lives.","Trailer":"K9cG9BzxMps","ReleaseDate":"27 March 2015","Title":"While We're Young"}
{"Actors":["Diane Keaton","Morgan Freeman","Cynthia Nixon"],"Rating":"Not yet rated","Genre":["Drama"],"Poster":"http://ia.media-imdb.com/images/M/MV5BMTQ5MzU3MzgwN15BMl5BanBnXkFtZTgwNjM2NDQ3NDE@._V1_SX214_AL_.jpg","Synopsis":"A long-time married couple who've spent their lives together in the same New York apartment become overwhelmed by personal and real estate-related issues when they plan to move away.","Trailer":"PreX3h3QYHY","ReleaseDate":"8 May 2015","Title":"5 Flights Up"}
{"Actors":["Robert Downey Jr.","Chris Evans","Mark Ruffalo"],"Rating":"Rated PG-13","Genre":["Action","Adventure","Sci-Fi"],"Poster":"http://ia.media-imdb.com/images/M/MV5BMTU4MDU3NDQ5Ml5BMl5BanBnXkFtZTgwOTU5MDUxNTE@._V1_SY317_CR1,0,214,317_AL_.jpg","Synopsis":"When Tony Stark and Bruce Banner try to jump-start a dormant peacekeeping program called Ultron, things go horribly wrong and it's up to Earth's Mightiest Heroes to stop the villainous Ultron from enacting his terrible plans.","Trailer":"Vs4U0W10Rkk","ReleaseDate":"1 May 2015","Title":"Avengers: Age of Ultron An IMAX 3D Experience (2015)"}
{"Actors":["Dermot Mulroney","Stefanie Scott","Angus Sampson"],"Rating":"Rated PG-13","Genre":["Horror"],"Poster":"http://ia.media-imdb.com/images/M/MV5BMTUwNDU4NjE1N15BMl5BanBnXkFtZTgwOTc0MzA5NDE@._V1_SX214_AL_.jpg","Synopsis":"A prequel set before the haunting of the Lambert family that reveals how gifted psychic Elise Rainier reluctantly agrees to use her ability to contact the dead in order to help a teenage girl who has been targeted by a dangerous supernatural entity.","Trailer":"3HxEXnVSr1w","ReleaseDate":"5 June 2015","Title":"Insidious: Chapter 3"}
{"Actors":["Ranbir Kapoor","Anushka Sharma","Karan Johar"],"Rating":"Not yet rated","Genre":["Crime","Drama","History","Thriller"],"Poster":"http://ia.media-imdb.com/images/M/MV5BMTQ0OTY3NTA4OV5BMl5BanBnXkFtZTgwNDU2MjAwNTE@._V1_SX214_AL_.jpg","Synopsis":"An ordinary man goes against all odds and forges his destiny to become a 'Big Shot'.","Trailer":"zkdNotpxn3I","ReleaseDate":"15 May 2015","Title":"Bombay Velvet"}
{"Actors":["Akshay Kumar","Kareena Kapoor","Shruti K. Haasan"],"Rating":"Not yet rated","Genre":["Action","Crime","Drama"],"Poster":"http://ia.media-imdb.com/images/M/MV5BMjQyMTY1NTc1NV5BMl5BanBnXkFtZTgwODUzMDIyNTE@._V1_SY317_CR3,0,214,317_AL_.jpg","Synopsis":"A grief-stricken man takes the law into his own hands when he begins to kidnap and murder corrupt public servants.","Trailer":"T95zFC4Z2pY","ReleaseDate":"1 May 2015","Title":"Gabbar is Back"}
{"Actors":["Amitabh Bachchan","Deepika Padukone","Irrfan Khan"],"Rating":"Not yet rated","Genre":["Comedy","Drama"],"Poster":"http://ia.media-imdb.com/images/M/MV5BMTUwOTMxNjc2OV5BMl5BanBnXkFtZTgwODQ4OTMxNTE@._V1_SY317_CR12,0,214,317_AL_.jpg","Synopsis":"A quirky comedy about the relationship between ageing father and his young daughter, living in a cosmopolitan city, dealing with each other's conflicting ideologies while being fully aware that they are each other's only emotional support.","Trailer":"oeiKUlUUNQ8","ReleaseDate":"8 May 2015","Title":"Piku"}
{"Actors":["Josh Duhamel","Maria Bello","Laura Dern"],"Rating":"Rated R","Genre":["Drama","Music"],"Poster":"http://ia.media-imdb.com/images/M/MV5BMjAwNzgwMjM4N15BMl5BanBnXkFtZTgwOTA2ODMyNTE@._V1_SY317_CR2,0,214,317_AL_.jpg","Synopsis":"Josh is a lost soul with an extraordinary musical talent set on a journey to encounter what he was least expecting but undoubtedly needed most. Feeling like it's him against the world at ...","Trailer":"Ag5rCNF7P6o","ReleaseDate":"8 May 2015","Title":"Bravetown"}
{"Actors":["Diane Lane","Elizabeth Banks","Dakota Fanning"],"Rating":"Rated R","Genre":["Crime","Drama"],"Poster":"http://ia.media-imdb.com/images/M/MV5BMTQ4OTAwMTE2N15BMl5BanBnXkFtZTgwMTUyNzUzNTE@._V1_SY317_CR12,0,214,317_AL_.jpg","Synopsis":"A detective looks to unravel a mystery surrounding missing children and the prime suspects: two young women who, seven years ago, were put away for an infant's death.","Trailer":"IaI6G9FoyBk","ReleaseDate":"15 May 2015","Title":"Every Secret Thing"}
{"Actors":["Vin Diesel","Paul Walker","Dwayne Johnson"],"Rating":"Rated PG-13","Genre":["Action","Crime","Thriller"],"Poster":"http://ia.media-imdb.com/images/M/MV5BMTQxOTA2NDUzOV5BMl5BanBnXkFtZTgwNzY2MTMxMzE@._V1_SX214_AL_.jpg","Synopsis":"Deckard Shaw seeks revenge against Dominic Toretto and his family for his comatose brother.","Trailer":"Tj2FzYf4fyk","ReleaseDate":"3 April 2015","Title":"Furious 7: An IMAX Experience"}
{"Actors":["Jakob Salvati","Emily Watson","David Henrie"],"Rating":"Rated PG-13","Genre":["Comedy","Drama","War"],"Poster":"http://ia.media-imdb.com/images/M/MV5BMTU5MjMyODcxMF5BMl5BanBnXkFtZTgwMzIwMDM2NDE@._V1_SX214_AL_.jpg","Synopsis":"An eight-year-old boy is willing to do whatever it takes to end World War II so he can bring his father home. The story reveals the indescribable love a father has for his little boy and the love a son has for his father.","Trailer":"b_BdzqsIX6A","ReleaseDate":"24 April 2015","Title":"Little Boy"}
{"Actors":["Amber Rose","Eva Marcille","Drew Sidora"],"Rating":"Rated R","Genre":["Comedy","Drama","Romance"],"Poster":"http://ia.media-imdb.com/images/M/MV5BMjI2ODg3NTEwMF5BMl5BanBnXkFtZTgwODgwMjQxNTE@._V1_SX214_AL_.jpg","Synopsis":"After the death of their mother, three foster sisters - the shrewd business woman, the free spirit, and the caregiver - find themselves fighting for their individual dreams and fighting each other in this tale of love, lust, and tragedy.","Trailer":"7bRIMn8mBMQ","ReleaseDate":"2015","Title":"Sister Code"}
{"Actors":["Ben Davies","Meg Crosbie","Ashley Bratcher"],"Rating":"Rated PG","Genre":["Drama"],"Poster":"http://ia.media-imdb.com/images/M/MV5BMTYyNTUxMjQwNF5BMl5BanBnXkFtZTgwNDY5MDIwNTE@._V1_SX214_AL_.jpg","Synopsis":"Filled with heart, humor, and wit, WAR ROOM follows Tony and Elizabeth Jordan, a couple who seemingly have it all-great jobs, a beautiful daughter, their dream home. But appearances can be ...","Trailer":"0eWsV0Lf7Mw","ReleaseDate":"28 August 2015","Title":"War Room"}
{"Actors":["Kristoffer Polaha","David DeSanctis","Danica McKellar"],"Rating":"Not yet rated","Genre":["Drama"],"Poster":"http://ia.media-imdb.com/images/M/MV5BMTY1MjUxOTU0OF5BMl5BanBnXkFtZTgwMDYxNTQ0NDE@._V1_SX214_AL_.jpg","Synopsis":"A baseball player whose professional career was cut short due to his personal problems is suddenly awakened and invigorated by a young-man with Down syndrome who works at the local grocery store.","Trailer":"tN7TlwduYsM","ReleaseDate":"15 May 2015","Title":"Where Hope Grows"}
{"Actors":["Juliette Binoche","Kristen Stewart","Chloë Grace Moretz"],"Rating":"Rated R","Genre":["Drama"],"Poster":"http://ia.media-imdb.com/images/M/MV5BMjAwMTg3MDE0NF5BMl5BanBnXkFtZTgwNjQ1ODQyNTE@._V1_SX214_AL_.jpg","Synopsis":"A veteran actress comes face-to-face with an uncomfortable reflection of herself when she agrees to take part in a revival of the play that launched her career 20 years earlier.","Trailer":"5qaARujEeDk","ReleaseDate":"10 April 2015","Title":"Clouds of Sils Maria"}
{"Actors":["Leslie Barany","Sandra Beretta","Mia Bonzanigo"],"Rating":"Not yet rated","Genre":["Documentary","Biography"],"Poster":"http://ia.media-imdb.com/images/M/MV5BMjM5MzU5ODUyMl5BMl5BanBnXkFtZTgwODA1MDAxNTE@._V1_SY317_CR3,0,214,317_AL_.jpg","Synopsis":"He feels at home in places we would flee from and lives his life among the very things we fear. Throughout his life, HR Giger had inhabited the world of the uncanny, a dark universe on the ...","Trailer":"U1MXYaQA04U","ReleaseDate":"9 May 2015","Title":"Dark Star: H.R. Giger's World"}
{"Actors":["Martin Dubreuil","Hadas Yaron","Luzer Twersky"],"Rating":"Rated R","Genre":["Drama","Romance"],"Poster":"http://ia.media-imdb.com/images/M/MV5BMTkzNjY3Mjk3OV5BMl5BanBnXkFtZTgwODYzODE1NDE@._V1_SY317_CR1,0,214,317_AL_.jpg","Synopsis":"In Félix and Meira, an unusual romance blossoms between two lost souls who inhabit the same neighborhood but vastly different worlds.","Trailer":"obC5MAJkm-w","ReleaseDate":"17 April 2015","Title":"Felix and Meira"}
{"Actors":["James Franco","Jonah Hill","Felicity Jones"],"Rating":"Rated R","Genre":["Drama","Mystery","Thriller"],"Poster":"http://ia.media-imdb.com/images/M/MV5BMTAzNTc5MTA0NzleQTJeQWpwZ15BbWU4MDU1MDM2NzMx._V1_SX214_AL_.jpg","Synopsis":"When disgraced New York Times reporter Michael Finkel meets accused killer Christian Longo - who has taken on Finkel's identity - his investigation morphs into a game of cat-and-mouse.","Trailer":"Y_NiP_bqlns","ReleaseDate":"17 April 2015","Title":"True Story"}
{"Actors":["Jemaine Clement","Taika Waititi","Cori Gonzalez-Macuer"],"Rating":"Rated R","Genre":["Comedy","Horror"],"Poster":"http://ia.media-imdb.com/images/M/MV5BMjAwNDA5NzEwM15BMl5BanBnXkFtZTgwMTA1MDUyNDE@._V1_SX214_AL_.jpg","Synopsis":"Viago, Deacon, and Vladislav are vampires who are finding that modern life has them struggling with the mundane - like paying rent, keeping up with the chore wheel, trying to get into nightclubs, and overcoming flatmate conflicts.","Trailer":"UOnMCBK7cRY","ReleaseDate":"13 February 2015","Title":"What We Do in the Shadows"}
{"Actors":["Michael Dowd","Ken Eurell","Walter Yurkiw"],"Rating":"Rated R","Genre":["Documentary"],"Poster":"http://ia.media-imdb.com/images/M/MV5BMjEwMzA0NTM4Nl5BMl5BanBnXkFtZTgwMzMxMzI2NTE@._V1_SY317_CR2,0,214,317_AL_.jpg","Synopsis":"Meet the dirtiest cop in NYC history. Michael Dowd stole money and dealt drugs while patrolling the streets of 80s Brooklyn.","Trailer":"LBB7DolmQPY","ReleaseDate":"8 May 2015","Title":"The Seven Five"}
{"Actors":["Barbara Hershey","Joe Mantegna","Diane Venora"],"Rating":"Rated R","Genre":["Drama"],"Poster":"http://ia.media-imdb.com/images/M/MV5BMTYxMDk0MzQ0N15BMl5BanBnXkFtZTgwNjA4OTMxNTE@._V1_SY317_CR0,0,214,317_AL_.jpg","Synopsis":"Katherine is a typical teenager. Today's her funeral. The four adults in her life have a lot on their mind - and it's not all about Katherine either. With a frankness that's strikingly disarming as well as frequently self-serving, the grown-ups struggle with being...","ReleaseDate":"3 April 2015","Title":"Childless"}
{"Actors":["Al Pacino","Annette Bening","Jennifer Garner"],"Rating":"Rated R","Genre":["Comedy","Drama","Music"],"Poster":"http://ia.media-imdb.com/images/M/MV5BNDk5NTYxOTk2MV5BMl5BanBnXkFtZTgwMzIxMjE0MzE@._V1_SX214_AL_.jpg","Synopsis":"An aging rock star decides to change his life when he discovers a 40-year-old letter written to him by <a href=\"/name/nm0006168\">John Lennon<\/a>.","Trailer":"AndERTFMYd4","ReleaseDate":"10 April 2015","Title":"Danny Collins"}
{"Actors":["Rafael Spregelburd","Dolores Fonzi","Blanca Lewin"],"Rating":"Not yet rated","Genre":["Comedy","Drama"],"Poster":"http://ia.media-imdb.com/images/M/MV5BMTQ5NzY2Nzg4OF5BMl5BanBnXkFtZTgwMDEwMzI0NTE@._V1_SX214_AL_.jpg","Synopsis":"A prestigious film critic who has lost faith in the art form sparks with a young woman whose tastes run opposite of his.","ReleaseDate":"15 May 2015","Title":"The Film Critic"}
{"Actors":["Peter Ferdinando","Stephen Graham","Neil Maskell"],"Rating":"Not yet rated","Genre":["Crime","Drama"],"Poster":"http://ia.media-imdb.com/images/M/MV5BMTk1ODk1Njg3MV5BMl5BanBnXkFtZTgwMjA5MjQxNTE@._V1_SY317_CR0,0,214,317_AL_.jpg","Synopsis":"Good policing doesn't necessarily mean doing everything by the book. But as the business of crime in London turns to favour the Albanians and Turks, how does a \"good\" policeman survive?","Trailer":"MgEZVdFai-M","ReleaseDate":"1 May 2015","Title":"Hyena"}
{"Actors":["Caroll Spinney","Jim Henson","Frank Oz"],"Rating":"Not yet rated","Genre":["Documentary","Biography","Drama"],"Poster":"http://ia.media-imdb.com/images/M/MV5BMTkyMDEyMjYxMF5BMl5BanBnXkFtZTgwODE2Mzc3NDE@._V1_SX214_AL_.jpg","Synopsis":"Caroll Spinney has been Sesame Street's Big Bird and Oscar the Grouch since 1969; at 78-years-old, he has no intention of stopping.","Trailer":"SVe059QAaE0","ReleaseDate":"6 May 2015","Title":"I Am Big Bird: The Caroll Spinney Story"}
{"Actors":["Deshawn Brown","Niquana Clark","Michael Dew"],"Rating":"Not yet rated","Genre":["Drama","Musical"],"Poster":"http://ia.media-imdb.com/images/M/MV5BMTQ2MTQ4ODIxMF5BMl5BanBnXkFtZTgwMDQyMzYxMTE@._V1_SX214_AL_.jpg","Synopsis":"A film about finding hope, written and acted by a group of New York City foster care teenagers from the stories of their lives and directed by first-time director Juan Carlos Pineiro ...","Trailer":"uDzXxEk2_IY","ReleaseDate":"15 May 2015","Title":"Know How"}
{"Actors":["Bob Anders","Joe Clark","William Daugherty"],"Rating":"Not yet rated","Genre":["Documentary","History"],"Poster":"http://ia.media-imdb.com/images/M/MV5BMTY4MDUzOTkxNl5BMl5BanBnXkFtZTgwMDc3NjY5MDE@._V1_SY317_CR2,0,214,317_AL_.jpg","Synopsis":"The events of the Iranian Hostage Crisis and Canada's involvement, especially concerning Ambassador Ken Taylor, are explored.","ReleaseDate":"15 May 2015","Title":"Our Man in Tehran"}
{"Actors":["Sonja Bennett","James Caan","Danny Trejo"],"Rating":"Not yet rated","Genre":["Comedy","Drama"],"Poster":"http://ia.media-imdb.com/images/M/MV5BMTQ1OTQxMzM4M15BMl5BanBnXkFtZTgwNDgxMjA2NTE@._V1_SY317_CR5,0,214,317_AL_.jpg","Synopsis":"A 35-year-old woman fakes being pregnant to fit in with her friends.","Trailer":"HXrG18syWas","ReleaseDate":"8 May 2015","Title":"Preggoland"}
{"Actors":["Unknown Actors"],"Rating":"Not yet rated","Genre":["Documentary","History","News"],"Poster":"http://ia.media-imdb.com/images/M/MV5BMzg4NjQ5MzE5NV5BMl5BanBnXkFtZTgwNzA2NzA0NDE@._V1_SY317_CR0,0,214,317_AL_.jpg","Synopsis":"SEEDS OF TIME follows agriculture pioneer Cary Fowler's global journey to save the eroding foundation of our food supply in a new era of climate change.","ReleaseDate":"22 May 2015","Title":"Seeds of Time"}
{"Actors":["Raf Simons","Marion Cotillard","Anna Wintour"],"Rating":"Not yet rated","Genre":["Documentary"],"Poster":"http://ia.media-imdb.com/images/M/MV5BOTAzMDE4MzMzNl5BMl5BanBnXkFtZTgwMjE4MzM2NDE@._V1_SX214_AL_.jpg","Synopsis":"Dior and I brings the viewer inside the storied world of the Christian Dior fashion house with a privileged, behind-the-scenes look at the creation of Raf Simons' first haute couture ...","Trailer":"nx88PMp5prY","ReleaseDate":"10 April 2015","Title":"Dior and I"}
{"Actors":["Olivia Cooke","Nick Offerman","Connie Britton"],"Rating":"Rated PG - 13","Genre":["Drama"],"Poster":"http://ia.media-imdb.com/images/M/MV5BNTA1NzUzNjY4MV5BMl5BanBnXkFtZTgwNDU0MDI0NTE@._V1_SX214_AL_.jpg","Synopsis":"A teenage filmmaker befriends a classmate with cancer.","Trailer":"4C-tIzrwWVY","ReleaseDate":"12 June 2015","Title":"Me and Earl and The Dying Girl"}
{"Actors":["Shailene Woodley","Ansel Elgort","Theo James"],"Rating":"Rated PG-13","Genre":["Adventure","Sci-Fi","Thriller"],"Poster":"http://ia.media-imdb.com/images/M/MV5BMTgxOTYxMTg3OF5BMl5BanBnXkFtZTgwMDgyMzA2NDE@._V1_SX214_AL_.jpg","Synopsis":"Beatrice Prior must confront her inner demons and continue her fight against a powerful alliance which threatens to tear her society apart with the help from others on her side.","Trailer":"suZcGoRLXkU","ReleaseDate":"20 March 2015","Title":"The Divergent Series: Insurgent 3D"}
{"Actors":["Judi Dench","Maggie Smith","Bill Nighy"],"Rating":"Rated PG","Genre":["Comedy","Drama"],"Poster":"http://ia.media-imdb.com/images/M/MV5BMTU3MjkxNjc0OV5BMl5BanBnXkFtZTgwMjc0NDg0NDE@._V1_SX214_AL_.jpg","Synopsis":"As the Best Exotic Marigold Hotel has only a single remaining vacancy - posing a rooming predicament for two fresh arrivals - Sonny pursues his expansionist dream of opening a second hotel.","Trailer":"3REYWGRmLnQ","ReleaseDate":"6 March 2015","Title":"The Second Best Exotic Marigold Hotel"}
{"Actors":["Jim Parsons","Rihanna","Steve Martin"],"Rating":"Rated PG","Genre":["Animation","Adventure","Comedy","Family","Fantasy","Sci-Fi"],"Poster":"http://ia.media-imdb.com/images/M/MV5BMTU0MzU4ODI3Ml5BMl5BanBnXkFtZTgwMzQzODk5NDE@._V1_SX214_AL_.jpg","Synopsis":"Oh, an alien on the run from his own people, lands on Earth and makes friends with the adventurous Tip, who is on a quest of her own.","Trailer":"MyqZf8LiWvM","ReleaseDate":"27 March 2015","Title":"Home 3D"}
{"Actors":["Daniel MacPherson","Grace Huang","Luke Hemsworth"],"Rating":"Rated R","Genre":["Drama","Sci-Fi","Thriller"],"Poster":"http://ia.media-imdb.com/images/M/MV5BMTcyODcwNzQ3MV5BMl5BanBnXkFtZTgwNDkyOTE3MjE@._V1_SX214_AL_.jpg","Synopsis":"An elite 'search and rescue' team transport onto an off-world mining-facility to rescue Whit Carmichael, the lone survivor of a biological outbreak.","Trailer":"Dqhp__GcDUM","ReleaseDate":"8 May 2015","Title":"Infini"}
